{
  "file": "./models/stations.json",
  "stations": [
    {
      "name": "1",
      "latitude": "121",
      "longitude": "11",
      "userid": "de50cc79-d9c3-4858-99fd-a8966cf17d48",
      "_id": "2a9216cb-5bb2-4395-aa29-1085ff9c563e"
    },
    {
      "name": "Antrim",
      "latitude": "54.717",
      "longitude": "-6.206",
      "userid": "21332ecd-8cb9-46e1-8ea5-85f6c514fc6b",
      "_id": "f14d9a08-e413-4936-9cea-4a2dac05e8ad"
    },
    {
      "name": "Belfast",
      "latitude": "54.608",
      "longitude": "-5.926",
      "userid": "a3836af1-17a3-4151-b673-39dc5d556159",
      "_id": "a7f7f611-5273-417c-88b9-6dfa2c52fea7"
    },
    {
      "name": "Clonakilty",
      "latitude": "51.6229346",
      "longitude": "-8.8870112",
      "userid": "25f9365a-c165-450a-b0d0-5aefdbbaae9f",
      "_id": "a71cca2a-e2af-4c95-bb7c-58763e21b1aa"
    },
    {
      "name": "Cobh",
      "latitude": "51.850",
      "longitude": "-8.294",
      "userid": "c3dac9fe-a5bf-46bf-9a99-99b1fd33eb1b",
      "_id": "50781714-ecdc-426c-9697-182f8d7386d1"
    },
    {
      "name": "Cork",
      "latitude": "51.904",
      "longitude": "-8.468",
      "userid": "c3dac9fe-a5bf-46bf-9a99-99b1fd33eb1b",
      "_id": "58ee041b-eefb-4b99-a8a7-8bfc37a8039b"
    },
    {
      "name": "Cork",
      "latitude": "51.90",
      "longitude": "-8.48",
      "userid": "25f9365a-c165-450a-b0d0-5aefdbbaae9f",
      "_id": "dca94740-ce40-45f5-8072-d4b15d87e2b0"
    },
    {
      "name": "Cork",
      "latitude": "51.89",
      "longitude": "-8.47",
      "userid": "21332ecd-8cb9-46e1-8ea5-85f6c514fc6b",
      "_id": "339a51f6-1b32-4f0a-ae6f-bd82b29ec80c"
    },
    {
      "name": "Donegal",
      "latitude": "54.92075415",
      "longitude": "-7.952385214651309",
      "userid": "25f9365a-c165-450a-b0d0-5aefdbbaae9f",
      "_id": "77e80062-3011-468a-894f-f322723a6773"
    },
    {
      "name": "Drogheda",
      "latitude": "51.850",
      "longitude": "-6.206",
      "userid": "a3836af1-17a3-4151-b673-39dc5d556159",
      "_id": "f1741754-493f-49a9-b3d3-3169c71bf3b5"
    },
    {
      "name": "Drogheda",
      "latitude": "53.7149877",
      "longitude": "-6.3524183",
      "userid": "c3dac9fe-a5bf-46bf-9a99-99b1fd33eb1b",
      "_id": "017131fc-76a8-4199-9990-5cd33321fa7b"
    },
    {
      "name": "Dublin",
      "latitude": "51.904",
      "longitude": "-8.468",
      "userid": "a3836af1-17a3-4151-b673-39dc5d556159",
      "_id": "42d1a0bd-1bed-485a-a511-94f3a22a3024"
    },
    {
      "name": "Dublin",
      "latitude": "53.3493795",
      "longitude": "-6.2605593",
      "userid": "25f9365a-c165-450a-b0d0-5aefdbbaae9f",
      "_id": "76baed8c-eddf-4a08-a86d-fa0dc09f6494"
    },
    {
      "name": "Dublin",
      "latitude": "53.3493795",
      "longitude": "-6.2605593",
      "userid": "c3dac9fe-a5bf-46bf-9a99-99b1fd33eb1b",
      "_id": "5b856486-024d-4567-a838-e710a9f721fd"
    },
    {
      "name": "Dublin",
      "latitude": "53.3493795",
      "longitude": "-6.2605593",
      "userid": "efd8ae19-af9b-4325-a2bb-040df6cfe86f",
      "_id": "d87159c1-33e4-49cc-914d-c8be1dd48366"
    },
    {
      "name": "Dungarvan",
      "latitude": "52.090",
      "longitude": "-7.622",
      "userid": "c3dac9fe-a5bf-46bf-9a99-99b1fd33eb1b",
      "_id": "cc5c06fc-7d79-4dd0-a970-2e9f8a514968"
    },
    {
      "name": "Ennis",
      "latitude": "52.844",
      "longitude": "-8.983",
      "userid": "21332ecd-8cb9-46e1-8ea5-85f6c514fc6b",
      "_id": "fa568d05-f68a-4576-9fa3-78026d816baf"
    },
    {
      "name": "Galway",
      "latitude": "53.271",
      "longitude": "-9.063",
      "userid": "21332ecd-8cb9-46e1-8ea5-85f6c514fc6b",
      "_id": "12b4e285-fbed-4214-bbb3-c218521dd5cd"
    },
    {
      "name": "Limerick",
      "latitude": "52.668",
      "longitude": "-8.630",
      "userid": "21332ecd-8cb9-46e1-8ea5-85f6c514fc6b",
      "_id": "49b4f020-7f37-4473-afe1-d192db32d66a"
    },
    {
      "name": "Navan",
      "latitude": "52.668",
      "longitude": "-9.063",
      "userid": "a3836af1-17a3-4151-b673-39dc5d556159",
      "_id": "0467fd17-1d6e-43f9-b929-c8cc2f293333"
    },
    {
      "name": "Portlaois",
      "latitude": "53.027784",
      "longitude": "-7.288883",
      "userid": "25f9365a-c165-450a-b0d0-5aefdbbaae9f",
      "_id": "a1a12db1-1b4c-427d-bb16-bd554be70745"
    },
    {
      "name": "Skibbereen",
      "latitude": "51.55",
      "longitude": "-9.2666753",
      "userid": "25f9365a-c165-450a-b0d0-5aefdbbaae9f",
      "_id": "ae6d27d4-014a-4024-986c-8e11793f332d"
    },
    {
      "name": "Tramore",
      "latitude": "52.159",
      "longitude": "-7.146",
      "userid": "c3dac9fe-a5bf-46bf-9a99-99b1fd33eb1b",
      "_id": "f14a35f1-5c8c-4a6e-a082-a7a0b24e300c"
    },
    {
      "name": "Trim",
      "latitude": "53.552",
      "longitude": "-6.793",
      "userid": "a3836af1-17a3-4151-b673-39dc5d556159",
      "_id": "d99ba7b5-8c5e-4f8b-a3f9-a3c76f0b0fbb"
    },
    {
      "name": "Waterford",
      "latitude": "52.258",
      "longitude": "-7.112",
      "userid": "c3dac9fe-a5bf-46bf-9a99-99b1fd33eb1b",
      "_id": "ad01368f-01d1-47fc-bb0f-bad5ff2392f1"
    },
    {
      "name": "dublin",
      "latitude": "53.498",
      "longitude": "6.260",
      "userid": "de50cc79-d9c3-4858-99fd-a8966cf17d48",
      "_id": "c539669d-729f-42ed-a222-fb04a4f3ba06"
    }
  ]
}